{"Hackathons": [{"Event": "HackGT 2017", "EventLongLat": "33.7490987, -84.3901849", "Location": "Atlanta, GA, US"}, {"Event": "PennApps XV", "EventLongLat": "39.9523993, -75.1635899", "Location": "Philadelphia, PA, US"}, {"Event": "HoloHack", "EventLongLat": "33.7490987, -84.3901849", "Location": "Atlanta, GA, US"}, {"Event": "HackDuke 2016: Code for Good", "EventLongLat": "35.9966551, -78.9018115", "Location": "Durham, NC, US"}, {"Event": "HackHarvard 2016", "EventLongLat": "42.3750997, -71.1056157", "Location": "Cambridge, MA, US"}, {"Event": "PennApps XIV", "EventLongLat": "39.9523993, -75.1635899", "Location": "Philadelphia, PA, US"}, {"Event": "Intelligent World Hackathon sponsored by Current, powered by GE", "EventLongLat": null, "Location": "Online"}, {"Event": "HackGT@UPC 2016", "EventLongLat": "41.3828939, 2.1774322", "Location": "Barcelona, Catalonia, Spain"}, {"Event": "hackEmory", "EventLongLat": "33.7490987, -84.3901849", "Location": "Atlanta, GA, US"}, {"Event": "SwampHacks 2016", "EventLongLat": "29.6519396, -82.3249961", "Location": "Gainesville, FL, US"}, {"Event": "UGA Hacks", "EventLongLat": "33.9550905, -83.3881868", "Location": "Athens, GA, US"}], "Name": "Caden Jiang", "Skills": ["Website", "GitHub", "java", "ios", "LinkedIn", "unity", "firebase", "html5", "android", "css"], "Long": "33.7490987", "Totals": {"Following": "15", "Followers": "15", "Hackathons": "11", "Likes": "8", "Projects": "8"}, "profilePic": "https://res.cloudinary.com/devpost/image/upload/b_transparent,c_pad,g_center,h_150,w_150/v1470904624/y0tr1smij2qvjgofuihv.jpg?height=180&amp;width=180", "devpostUrl": "https://devpost.com/Cadenjiang", "userLocation": "Atlanta, Georgia, United States", "LongLat": "33.7490987, -84.3901849", "Lat": "-84.3901849", "Projects": [{"URL": "https://devpost.com/software/medventure", "Graphic": "https://firefly-challengepost.netdna-ssl.com/usercontent/fill/333/222/cGhvdG9zL3Byb2R1Y3Rpb24vc29mdHdhcmVfdGh1bWJuYWlsX3Bob3Rvcy8wMDAvNDYyLzAzMy9kYXRhcy9vcmlnaW5hbC5wbmc=/Screen_Shot_2017-01-22_at_4.57.54_AM.png?signature=b6bb7fa847cc90cf7161d88e082f1f6a057e80a4"}, {"URL": "https://devpost.com/software/labyrinth", "Graphic": "https://firefly-challengepost.netdna-ssl.com/usercontent/fill/333/222/cGhvdG9zL3Byb2R1Y3Rpb24vc29mdHdhcmVfdGh1bWJuYWlsX3Bob3Rvcy8wMDAvMzM4LzI2OS9kYXRhcy9vcmlnaW5hbC5qcGc=/Logo.jpg?signature=f4e9422ad0571714a01531b92d662fd2a1d439ad"}, {"URL": "https://devpost.com/software/wingbuddy", "Graphic": "https://firefly-challengepost.netdna-ssl.com/usercontent/fill/333/222/cGhvdG9zL3Byb2R1Y3Rpb24vc29mdHdhcmVfdGh1bWJuYWlsX3Bob3Rvcy8wMDAvMzcyLzUzNi9kYXRhcy9vcmlnaW5hbC5qcGc=/12932831_10208238677978427_9023447378532210813_n.jpg?signature=e29ac3c2f48f8774c19498cea50add588f8c6550"}, {"URL": "https://devpost.com/software/airpnp", "Graphic": "https://firefly-challengepost.netdna-ssl.com/usercontent/fill/333/222/cGhvdG9zL3Byb2R1Y3Rpb24vc29mdHdhcmVfdGh1bWJuYWlsX3Bob3Rvcy8wMDAvNDA4LzIyNS9kYXRhcy9vcmlnaW5hbC5wbmc=/AirPnP.png?signature=30d02d430fb7714f169a782f92791e48cd88d2db"}, {"URL": "https://devpost.com/software/architect", "Graphic": "https://devpost-challengepost.netdna-ssl.com/assets/defaults/thumbnail-placeholder-42bcab8d8178b413922ae2877d8b0868.gif"}, {"URL": "https://devpost.com/software/hungry holmes", "Graphic": "https://firefly-challengepost.netdna-ssl.com/usercontent/fill/333/222/cGhvdG9zL3Byb2R1Y3Rpb24vc29mdHdhcmVfdGh1bWJuYWlsX3Bob3Rvcy8wMDAvNDMxLzE2Ny9kYXRhcy9vcmlnaW5hbC5wbmc=/14804828_10209819698542953_857303594_n.png?signature=4b0aea83e61cc2261777214d847c9688a9826e68"}, {"URL": "https://devpost.com/software/places now", "Graphic": "https://firefly-challengepost.netdna-ssl.com/usercontent/fill/333/222/cGhvdG9zL3Byb2R1Y3Rpb24vc29mdHdhcmVfdGh1bWJuYWlsX3Bob3Rvcy8wMDAvMzk3LzQ1NC9kYXRhcy9vcmlnaW5hbC5wbmc=/PlacesNowIcon.png?signature=a006f30c25d2b1106c98f2807f5eb1ad3a6cee2e"}, {"URL": "https://devpost.com/software/get me this", "Graphic": "https://firefly-challengepost.netdna-ssl.com/usercontent/fill/333/222/cGhvdG9zL3Byb2R1Y3Rpb24vc29mdHdhcmVfdGh1bWJuYWlsX3Bob3Rvcy8wMDAvMzExLzEzOS9kYXRhcy9vcmlnaW5hbC5wbmc=/GetMeThis.png?signature=be3e307748f0a9d744d91a137b20f8bf6fbbac48"}]}