{"Hackathons": [{"Event": "SXSW Hackathon", "EventLongLat": "30.2711286, -97.7436995", "Location": "Austin, TX, US"}, {"Event": "Hackital", "EventLongLat": "38.8949549, -77.0366456", "Location": "Washington, DC, US"}, {"Event": "Watson Developer Challenge: Conversational Applications", "EventLongLat": null, "Location": "Online"}, {"Event": "VTHacks III", "EventLongLat": "37.2296566, -80.4136767", "Location": "Blacksburg, VA, US"}, {"Event": "MHacks: Refactor", "EventLongLat": "42.2681569, -83.7312291", "Location": "Ann Arbor, MI, US"}, {"Event": "Hoya Hacks", "EventLongLat": "38.8949549, -77.0366456", "Location": "Washington, DC, US"}, {"Event": "ObjectRocket by Rackspace Presents Hack The Block", "EventLongLat": null, "Location": "Online"}, {"Event": "MHacks 6", "EventLongLat": "42.2681569, -83.7312291", "Location": "Ann Arbor, MI, US"}, {"Event": "VTHacks Spring 2015", "EventLongLat": "37.2296566, -80.4136767", "Location": "Blacksburg, VA, US"}, {"Event": "Yo App Challenge", "EventLongLat": null, "Location": "Online"}, {"Event": "HackDuke Fall 2014: Code For Good", "EventLongLat": "35.9966551, -78.9018115", "Location": "Durham, NC, US"}, {"Event": "YHack 2014", "EventLongLat": "41.3082138, -72.9250518", "Location": "New Haven, Connecticut, United States"}, {"Event": "MHacks IV Fall 2014", "EventLongLat": "42.2681569, -83.7312291", "Location": "Ann Arbor, MI, US"}, {"Event": "MHacks Winter 2014", "EventLongLat": "42.3486635, -83.0567375", "Location": "Detroit, MI, US"}, {"Event": "DEBUT: DEsign by Biomedical Undergraduate Teams", "EventLongLat": null, "Location": "Online"}], "Name": "Dag Yeshiwas", "Skills": ["Website", "GitHub", "java", "python", "Twitter", "javascript", "ios", "LinkedIn", "windows", "android"], "Long": "38.8949549", "Totals": {"Following": "16", "Followers": "22", "Hackathons": "15", "Likes": "14", "Projects": "11"}, "profilePic": "http://challengepost-s3-challengepost.netdna-ssl.com/photos/production/user_photos/000/354/551/datas/profile.jpg", "devpostUrl": "https://devpost.com/cozma", "userLocation": "Washington, District of Columbia, United States", "LongLat": "38.8949549, -77.0366456", "Lat": "-77.0366456", "Projects": [{"URL": "https://devpost.com/software/sensible", "Graphic": "https://firefly-challengepost.netdna-ssl.com/usercontent/fill/333/222/cGhvdG9zL3Byb2R1Y3Rpb24vc29mdHdhcmVfdGh1bWJuYWlsX3Bob3Rvcy8wMDAvNDQzLzI2MS9kYXRhcy9vcmlnaW5hbC5wbmc=/Screen_Shot_2016-11-13_at_9.00.52_AM.png?signature=d92334349915faedc6060ebcf5a2d7c54a7c595a"}, {"URL": "https://devpost.com/software/emote", "Graphic": "https://firefly-challengepost.netdna-ssl.com/usercontent/fill/333/222/cGhvdG9zL3Byb2R1Y3Rpb24vc29mdHdhcmVfdGh1bWJuYWlsX3Bob3Rvcy8wMDAvNDQyLzg1MS9kYXRhcy9vcmlnaW5hbC5wbmc=/Screen_Shot_2016-11-13_at_8.34.38_AM.png?signature=b047af9de96cc03ce35c535f3281f2ea488cc7e3"}, {"URL": "https://devpost.com/software/flex", "Graphic": "https://firefly-challengepost.netdna-ssl.com/usercontent/fill/333/222/cGhvdG9zL3Byb2R1Y3Rpb24vc29mdHdhcmVfdGh1bWJuYWlsX3Bob3Rvcy8wMDAvMzU0LzQ3MS9kYXRhcy9vcmlnaW5hbC5qcGc=/logo.jpg?signature=619fe3bb1abdef792375b92871878b9b22fdda20"}, {"URL": "https://devpost.com/software/timecheck", "Graphic": "https://firefly-challengepost.netdna-ssl.com/usercontent/fill/333/222/cGhvdG9zL3Byb2R1Y3Rpb24vc29mdHdhcmVfdGh1bWJuYWlsX3Bob3Rvcy8wMDAvMzQwLzM5Ny9kYXRhcy9vcmlnaW5hbC5naWY=/tcthumb.gif?signature=3f325f9bab589d73ce8d09a7d31ed7998734ce97"}, {"URL": "https://devpost.com/software/1ife", "Graphic": "https://challengepost-s3-challengepost.netdna-ssl.com/photos/production/software_photos/000/210/366/datas/medium.png"}, {"URL": "https://devpost.com/software/lifeboard", "Graphic": "https://firefly-challengepost.netdna-ssl.com/usercontent/fill/333/222/cGhvdG9zL3Byb2R1Y3Rpb24vc29mdHdhcmVfdGh1bWJuYWlsX3Bob3Rvcy8wMDAvMjg5LzI5NS9kYXRhcy9vcmlnaW5hbC5wbmc=/lifeboardlogo.png?signature=283f472c842d61b8a24a4db925b0ee6c1499413b"}, {"URL": "https://devpost.com/software/yolow", "Graphic": "https://challengepost-s3-challengepost.netdna-ssl.com/photos/production/software_photos/000/187/536/datas/medium.png"}, {"URL": "https://devpost.com/software/rebay", "Graphic": "https://challengepost-s3-challengepost.netdna-ssl.com/photos/production/software_photos/000/186/618/datas/medium.png"}, {"URL": "https://devpost.com/software/hokie p finder", "Graphic": "https://challengepost-s3-challengepost.netdna-ssl.com/photos/production/software_photos/000/181/759/datas/medium.png"}, {"URL": "https://devpost.com/software/plus5", "Graphic": "https://challengepost-s3-challengepost.netdna-ssl.com/photos/production/software_photos/000/111/338/datas/medium.jpg"}, {"URL": "https://devpost.com/software/yolow", "Graphic": "https://challengepost-s3-challengepost.netdna-ssl.com/photos/production/software_photos/000/154/688/datas/medium.png"}]}