{"Hackathons": [{"Event": "WildHacks 2016", "EventLongLat": "42.0447388, -87.6930459", "Location": "Evanston, IL, US"}, {"Event": "HackRU Fall 2016", "EventLongLat": "40.4862174, -74.4518173", "Location": "New Brunswick, NJ, US"}, {"Event": "WildHacks 2015", "EventLongLat": "42.0447388, -87.6930459", "Location": "Evanston, IL, US"}, {"Event": "hackNY Spring 2015 Hackathon", "EventLongLat": "40.7306458, -73.9866136", "Location": "New York, NY, US"}, {"Event": "McHacks", "EventLongLat": "45.4972159, -73.6103642", "Location": "Montr\u00e9al, QC, CA"}, {"Event": "MHacks V", "EventLongLat": "42.2681569, -83.7312291", "Location": "Ann Arbor, MI, US"}, {"Event": "Hack(RPI);", "EventLongLat": "42.7284117, -73.6917851", "Location": "Troy, NY, US"}, {"Event": "YHack 2014", "EventLongLat": "41.3082138, -72.9250518", "Location": "New Haven, Connecticut, United States"}, {"Event": "Hack The North", "EventLongLat": "43.466874, -80.524635", "Location": "Waterloo, ON, CA"}, {"Event": "The Fueled 2014 Hackathon", "EventLongLat": "40.7306458, -73.9866136", "Location": "New York, NY, US"}, {"Event": "Hack NYU Hackathon", "EventLongLat": "40.64530975, -73.9550230275334", "Location": "Brooklyn, NY, US"}, {"Event": "hackBCA", "EventLongLat": "40.8859326, -74.0434736", "Location": "Hackensack, NJ, US"}], "Name": "Brian Chuk", "Skills": ["Website", "web", "Twitter", "GitHub", "LinkedIn"], "Long": "40.7306458", "Totals": {"Following": "13", "Followers": "18", "Hackathons": "12", "Likes": "1", "Projects": "10"}, "profilePic": "http://challengepost-s3-challengepost.netdna-ssl.com/photos/production/user_photos/000/447/315/datas/profile.jpg", "devpostUrl": "https://devpost.com/devchuk", "userLocation": "New York, New York, United States", "LongLat": "40.7306458, -73.9866136", "Lat": "-73.9866136", "Projects": [{"URL": "https://devpost.com/software/haikume", "Graphic": "https://devpost-challengepost.netdna-ssl.com/assets/defaults/thumbnail-placeholder-42bcab8d8178b413922ae2877d8b0868.gif"}, {"URL": "https://devpost.com/software/project firefly", "Graphic": "https://challengepost-s3-challengepost.netdna-ssl.com/photos/production/software_photos/000/432/193/datas/medium.jpg"}, {"URL": "https://devpost.com/software/shoutfight", "Graphic": "https://firefly-challengepost.netdna-ssl.com/usercontent/fill/333/222/cGhvdG9zL3Byb2R1Y3Rpb24vc29mdHdhcmVfdGh1bWJuYWlsX3Bob3Rvcy8wMDAvMzI1LzMzMC9kYXRhcy9vcmlnaW5hbC5wbmc=/fireball2.png?signature=003fd415d5f5a8c91190e3d77f94cdceb9129131"}, {"URL": "https://devpost.com/software/cere-brawl!", "Graphic": "https://challengepost-s3-challengepost.netdna-ssl.com/photos/production/software_photos/000/226/694/datas/medium.png"}, {"URL": "https://devpost.com/software/parrot", "Graphic": "https://challengepost-s3-challengepost.netdna-ssl.com/photos/production/software_photos/000/216/409/datas/medium.png"}, {"URL": "https://devpost.com/software/creation", "Graphic": "https://challengepost-s3-challengepost.netdna-ssl.com/photos/production/software_photos/000/201/980/datas/medium.png"}, {"URL": "https://devpost.com/software/penny pimping", "Graphic": "https://challengepost-s3-challengepost.netdna-ssl.com/photos/production/software_photos/000/181/699/datas/medium.jpg"}, {"URL": "https://devpost.com/software/afar (advanced first aid response system)", "Graphic": "https://challengepost-s3-challengepost.netdna-ssl.com/photos/production/software_photos/000/161/618/datas/medium.png"}, {"URL": "https://devpost.com/software/blackout", "Graphic": "https://challengepost-s3-challengepost.netdna-ssl.com/photos/production/software_photos/000/128/071/datas/medium.jpg"}, {"URL": "https://devpost.com/software/pictoid", "Graphic": "https://challengepost-s3-challengepost.netdna-ssl.com/photos/production/software_photos/000/117/034/datas/medium.png"}]}