{"Hackathons": [{"Event": "HackIllinois 2017", "EventLongLat": "40.1117174, -88.207301", "Location": "Urbana, IL, US"}, {"Event": "BoilerMake IV", "EventLongLat": "40.4258686, -86.9080655", "Location": "West Lafayette, IN, US"}, {"Event": "RedbirdHacks", "EventLongLat": "40.5117699, -88.9944815", "Location": "Normal, IL, US"}, {"Event": "HackIllinois 2016", "EventLongLat": "40.1117174, -88.207301", "Location": "Urbana, IL, US"}, {"Event": "WildHacks 2015", "EventLongLat": "42.0447388, -87.6930459", "Location": "Evanston, IL, US"}, {"Event": "BoilerMake", "EventLongLat": "40.4258686, -86.9080655", "Location": "West Lafayette, IN, US"}, {"Event": "MHacks 6", "EventLongLat": "42.2681569, -83.7312291", "Location": "Ann Arbor, MI, US"}], "Name": "Eric Hennenfent", "Skills": ["Website", "GitHub"], "Long": null, "Totals": {"Following": "1", "Followers": "0", "Hackathons": "7", "Likes": "7", "Projects": "7"}, "profilePic": "https://www.gravatar.com/avatar/b54926c5f75992a48fbbe94df182f609?d=https%3A%2F%2Fdevpost-challengepost.netdna-ssl.com%2Fassets%2Fdefaults%2Fno-avatar-180.png&amp;s=180", "devpostUrl": "https://devpost.com/ehennenfent", "userLocation": null, "LongLat": null, "Lat": null, "Projects": [{"URL": "https://devpost.com/software/fighting fake news with crypto", "Graphic": "https://devpost-challengepost.netdna-ssl.com/assets/defaults/thumbnail-placeholder-42bcab8d8178b413922ae2877d8b0868.gif"}, {"URL": "https://devpost.com/software/spotilytics", "Graphic": "https://firefly-challengepost.netdna-ssl.com/usercontent/fill/333/222/cGhvdG9zL3Byb2R1Y3Rpb24vc29mdHdhcmVfdGh1bWJuYWlsX3Bob3Rvcy8wMDAvNDYyLzkzNS9kYXRhcy9vcmlnaW5hbC5wbmc=/Screen_Shot_2017-01-22_at_8.59.28_AM.png?signature=2517f6e68a4a627ba2e9f93d67f09a332a09f121"}, {"URL": "https://devpost.com/software/transit for alexa", "Graphic": "https://devpost-challengepost.netdna-ssl.com/assets/defaults/thumbnail-placeholder-42bcab8d8178b413922ae2877d8b0868.gif"}, {"URL": "https://devpost.com/software/golden pirate dragon: the simulator", "Graphic": "https://firefly-challengepost.netdna-ssl.com/usercontent/fill/333/222/cGhvdG9zL3Byb2R1Y3Rpb24vc29mdHdhcmVfdGh1bWJuYWlsX3Bob3Rvcy8wMDAvMzY5LzgxOS9kYXRhcy9vcmlnaW5hbC5wbmc=/Screen_Shot_2016-04-03_at_9.54.17_AM.png?signature=7f9be2bad63890b8e298675e221ba5e5c5d676dd"}, {"URL": "https://devpost.com/software/open scsi", "Graphic": "https://firefly-challengepost.netdna-ssl.com/usercontent/fill/333/222/cGhvdG9zL3Byb2R1Y3Rpb24vc29mdHdhcmVfdGh1bWJuYWlsX3Bob3Rvcy8wMDAvMzUwLzM0Mi9kYXRhcy9vcmlnaW5hbC5wbmc=/SCSI_3-2_Logo.png?signature=dc95396a5beb13e817f7c991628358cdf32f4c43"}, {"URL": "https://devpost.com/software/funfacts.js", "Graphic": "https://firefly-challengepost.netdna-ssl.com/usercontent/fill/333/222/cGhvdG9zL3Byb2R1Y3Rpb24vc29mdHdhcmVfdGh1bWJuYWlsX3Bob3Rvcy8wMDAvMzI1LzUzMy9kYXRhcy9vcmlnaW5hbC5wbmc=/Screen_Shot_2015-11-22_at_9.03.25_AM.png?signature=fc465014e244a9181d14f59cfb329b234ec8552a"}, {"URL": "https://devpost.com/software/wyshlist", "Graphic": "https://challengepost-s3-challengepost.netdna-ssl.com/photos/production/software_photos/000/306/847/datas/medium.png"}]}