{"Hackathons": [{"Event": "GIF Hack", "EventLongLat": "37.442156, -122.1634472", "Location": "Palo Alto, CA, US"}, {"Event": "HackHarvard 2015", "EventLongLat": "42.3750997, -71.1056157", "Location": "Cambridge, MA, US"}, {"Event": "BostonHacks", "EventLongLat": "42.3604823, -71.0595678", "Location": "Boston, MA, US"}, {"Event": "HackDartmouth II", "EventLongLat": "43.703622, -72.288666", "Location": "Hanover, NH, US"}, {"Event": "2nd Global Appathon", "EventLongLat": "42.3604823, -71.0595678", "Location": "Boston, MA, US"}, {"Event": "PennApps Winter 2015", "EventLongLat": "39.9523993, -75.1635899", "Location": "Philadelphia, PA, US"}, {"Event": "The \"Make the Breast Pump Not Suck\" Hackathon", "EventLongLat": "42.3750997, -71.1056157", "Location": "Cambridge, MA, US"}, {"Event": "Hackcess to Justice 2014", "EventLongLat": "42.3604823, -71.0595678", "Location": "Boston, MA, US"}, {"Event": "Global Appathon", "EventLongLat": "42.3604823, -71.0595678", "Location": "Boston, MA, US"}, {"Event": "#HackBostonStrong: Give Back for Boston", "EventLongLat": "42.3750997, -71.1056157", "Location": "Cambridge, MA, US"}, {"Event": "HackPrinceton Spring 2014", "EventLongLat": "40.3492744, -74.6592958", "Location": "Princeton, New Jersey, United States"}, {"Event": "Make_BU", "EventLongLat": "42.3604823, -71.0595678", "Location": "Boston, MA, US"}, {"Event": "PennApps Spring 2014", "EventLongLat": "39.9523993, -75.1635899", "Location": "Philadelphia, Pennsylvania, United States"}, {"Event": "MHacks Winter 2014", "EventLongLat": "42.3486635, -83.0567375", "Location": "Detroit, MI, US"}, {"Event": "MassDOT Visualizing Transportation Hackathon", "EventLongLat": "42.3750997, -71.1056157", "Location": "Cambridge, Massachusetts, United States"}], "Name": "Huy Le", "Skills": ["css3", "web", "GitHub", "java", "windows", "amazon-web-services", "Twitter", "javascript", "LinkedIn", "node.js", "python", "jquery", "html5", "mongodb", "windows-phone", "android", "php", "Website"], "Long": "42.3604823", "Totals": {"Following": "1", "Followers": "9", "Hackathons": "15", "Likes": "3", "Projects": "14"}, "profilePic": "http://challengepost-s3-challengepost.netdna-ssl.com/photos/production/user_photos/000/078/990/datas/profile.jpg", "devpostUrl": "https://devpost.com/huyle333", "userLocation": "Boston, Massachusetts, United States", "LongLat": "42.3604823, -71.0595678", "Lat": "-71.0595678", "Projects": [{"URL": "https://devpost.com/software/gfytti", "Graphic": "https://firefly-challengepost.netdna-ssl.com/usercontent/fill/333/222/cGhvdG9zL3Byb2R1Y3Rpb24vc29mdHdhcmVfdGh1bWJuYWlsX3Bob3Rvcy8wMDAvNDY3Lzk5NS9kYXRhcy9vcmlnaW5hbC5naWY=/EvilWebbedFennecfox-size_restricted.gif?signature=512975e0da8fae57636a815606c5cd89399606c9"}, {"URL": "https://devpost.com/software/assassin spoons", "Graphic": "https://firefly-challengepost.netdna-ssl.com/usercontent/fill/333/222/cGhvdG9zL3Byb2R1Y3Rpb24vc29mdHdhcmVfdGh1bWJuYWlsX3Bob3Rvcy8wMDAvMzIyLzYyOS9kYXRhcy9vcmlnaW5hbC5wbmc=/Icon.png?signature=1bdb4890d39b82123ca70027202550d25d373529"}, {"URL": "https://devpost.com/software/b3.js", "Graphic": "https://firefly-challengepost.netdna-ssl.com/usercontent/fill/333/222/cGhvdG9zL3Byb2R1Y3Rpb24vc29mdHdhcmVfdGh1bWJuYWlsX3Bob3Rvcy8wMDAvMjk5LzA0OC9kYXRhcy9vcmlnaW5hbC5qcGc=/vitaminB3.jpg?signature=d411f3da74e5973ddd2467e565f513082415962e"}, {"URL": "https://devpost.com/software/pocket converter", "Graphic": "https://challengepost-s3-challengepost.netdna-ssl.com/photos/production/software_photos/000/206/360/datas/medium.jpg"}, {"URL": "https://devpost.com/software/cm4d", "Graphic": "https://challengepost-s3-challengepost.netdna-ssl.com/photos/production/software_photos/000/201/028/datas/medium.png"}, {"URL": "https://devpost.com/software/breadcrumbs", "Graphic": "https://challengepost-s3-challengepost.netdna-ssl.com/photos/production/software_photos/000/113/260/datas/medium.jpg"}, {"URL": "https://devpost.com/software/livh", "Graphic": "https://challengepost-s3-challengepost.netdna-ssl.com/photos/production/software_photos/000/162/349/datas/medium.jpg"}, {"URL": "https://devpost.com/software/howtonest", "Graphic": "https://challengepost-s3-challengepost.netdna-ssl.com/photos/production/software_photos/000/107/632/datas/medium.PNG"}, {"URL": "https://devpost.com/software/commuter rail - trip status vs number of passengers", "Graphic": "https://challengepost-s3-challengepost.netdna-ssl.com/photos/production/software_photos/000/104/783/datas/medium.PNG"}, {"URL": "https://devpost.com/software/amgine", "Graphic": "https://challengepost-s3-challengepost.netdna-ssl.com/photos/production/software_photos/000/134/402/datas/medium.png"}, {"URL": "https://devpost.com/software/echo can", "Graphic": "https://challengepost-s3-challengepost.netdna-ssl.com/photos/production/software_photos/000/124/389/datas/medium.jpg"}, {"URL": "https://devpost.com/software/optimal", "Graphic": "https://challengepost-s3-challengepost.netdna-ssl.com/photos/production/software_photos/000/119/179/datas/medium.PNG"}, {"URL": "https://devpost.com/software/memory basket", "Graphic": "https://challengepost-s3-challengepost.netdna-ssl.com/photos/production/software_photos/000/116/889/datas/medium.jpg"}, {"URL": "https://devpost.com/software/le' jit", "Graphic": "https://challengepost-s3-challengepost.netdna-ssl.com/photos/production/software_photos/000/125/083/datas/medium.png"}]}