{"Hackathons": [{"Event": "PennApps XII", "EventLongLat": "39.9523993, -75.1635899", "Location": "Philadelphia, PA, US"}, {"Event": "Hacking Generation Y", "EventLongLat": "37.4863239, -122.2325233", "Location": "Redwood City, CA, US"}, {"Event": "PennApps Winter 2015", "EventLongLat": "39.9523993, -75.1635899", "Location": "Philadelphia, PA, US"}, {"Event": "HackDuke Fall 2014: Code For Good", "EventLongLat": "35.9966551, -78.9018115", "Location": "Durham, NC, US"}, {"Event": "DubHacks 2014", "EventLongLat": "47.6038321, -122.3300624", "Location": "Seattle, WA, US"}], "Name": "Lowell Bander", "Skills": ["jquery", "Website", "GitHub", "java", "python", "javascript", "ios", "c++", "flask", "heroku", "html5", "twilio", "android", "css"], "Long": "34.054935", "Totals": {"Following": "29", "Followers": "10", "Hackathons": "5", "Likes": "13", "Projects": "4"}, "profilePic": "https://www.gravatar.com/avatar/896a9adce62d57017763e44cc4e33862?d=https%3A%2F%2Fdevpost-challengepost.netdna-ssl.com%2Fassets%2Fdefaults%2Fno-avatar-180.png&amp;s=180", "devpostUrl": "https://devpost.com/lowellbander", "userLocation": "Los Angeles, California, United States", "LongLat": "34.054935, -118.244476", "Lat": "-118.244476", "Projects": [{"URL": "https://devpost.com/software/where the heart is", "Graphic": "https://firefly-challengepost.netdna-ssl.com/usercontent/fill/333/222/cGhvdG9zL3Byb2R1Y3Rpb24vc29mdHdhcmVfdGh1bWJuYWlsX3Bob3Rvcy8wMDAvMjg1LzM0Ni9kYXRhcy9vcmlnaW5hbC5wbmc=/where-the-heart-is-3x.png?signature=3922f19038fd0dde394e3bb8396fef63bd5ce4b2"}, {"URL": "https://devpost.com/software/rocktomato", "Graphic": "https://challengepost-s3-challengepost.netdna-ssl.com/photos/production/software_photos/000/200/935/datas/medium.jpg"}, {"URL": "https://devpost.com/software/acc!dont", "Graphic": "https://challengepost-s3-challengepost.netdna-ssl.com/photos/production/software_photos/000/186/556/datas/medium.png"}, {"URL": "https://devpost.com/software/myopong", "Graphic": "https://challengepost-s3-challengepost.netdna-ssl.com/photos/production/software_photos/000/174/734/datas/medium.jpg"}]}