{"Hackathons": [{"Event": "HackGT 2017", "EventLongLat": "33.7490987, -84.3901849", "Location": "Atlanta, GA, US"}, {"Event": "HackRice 7", "EventLongLat": "29.7589382, -95.3676974", "Location": "Houston, TX, US"}, {"Event": "PennApps XVI", "EventLongLat": "39.9523993, -75.1635899", "Location": "Philadelphia, PA, US"}, {"Event": "HackDuke 2016: Code for Good", "EventLongLat": "35.9966551, -78.9018115", "Location": "Durham, NC, US"}, {"Event": "DubHacks 2016", "EventLongLat": "47.6038321, -122.3300624", "Location": "Seattle, WA, US"}, {"Event": "HackPrinceton Fall 2015", "EventLongLat": "40.3492744, -74.6592958", "Location": "Princeton, New Jersey, United States"}, {"Event": "DubHacks 2015", "EventLongLat": "47.6038321, -122.3300624", "Location": "Seattle, WA, US"}], "Name": "Oliver Collins", "Skills": ["Website", "GitHub", "python", "sql", "numpy", "pandas"], "Long": "40.0149856", "Totals": {"Following": "0", "Followers": "0", "Hackathons": "7", "Likes": "1", "Projects": "7"}, "profilePic": "http://challengepost-s3-challengepost.netdna-ssl.com/photos/production/user_photos/000/538/621/datas/profile.JPG", "devpostUrl": "https://devpost.com/OliverCollins", "userLocation": "Boulder, Colorado, United States", "LongLat": "40.0149856, -105.2705456", "Lat": "-105.2705456", "Projects": [{"URL": "https://devpost.com/software/airline delays visualization", "Graphic": "https://firefly-challengepost.netdna-ssl.com/usercontent/fill/333/222/cGhvdG9zL3Byb2R1Y3Rpb24vc29mdHdhcmVfdGh1bWJuYWlsX3Bob3Rvcy8wMDAvNTQ4LzkzNy9kYXRhcy9vcmlnaW5hbC5wbmc=/delta1.png?signature=e8c203a649cd736a08686fee820e60eb9054130a"}, {"URL": "https://devpost.com/software/face2face", "Graphic": "https://firefly-challengepost.netdna-ssl.com/usercontent/fill/333/222/cGhvdG9zL3Byb2R1Y3Rpb24vc29mdHdhcmVfdGh1bWJuYWlsX3Bob3Rvcy8wMDAvNTM4LzYyNi9kYXRhcy9vcmlnaW5hbC5wbmc=/Clinton2.png?signature=8483b9bb919c07be8602fcc7ce5787a03ddad2c5"}, {"URL": "https://devpost.com/software/hackduke", "Graphic": "https://devpost-challengepost.netdna-ssl.com/assets/defaults/thumbnail-placeholder-42bcab8d8178b413922ae2877d8b0868.gif"}, {"URL": "https://devpost.com/software/dubhacks 2016 project", "Graphic": "https://devpost-challengepost.netdna-ssl.com/assets/defaults/thumbnail-placeholder-42bcab8d8178b413922ae2877d8b0868.gif"}, {"URL": "https://devpost.com/software/netchill & flix", "Graphic": "https://firefly-challengepost.netdna-ssl.com/usercontent/fill/333/222/cGhvdG9zL3Byb2R1Y3Rpb24vc29mdHdhcmVfdGh1bWJuYWlsX3Bob3Rvcy8wMDAvMzIyLzI5Mi9kYXRhcy9vcmlnaW5hbC5wbmc=/Screenshot_%282%29.png?signature=7bbde8fc21cb2e3614c9fce7b2b953a9436b36e5"}, {"URL": "https://devpost.com/software/rerecruit", "Graphic": "https://firefly-challengepost.netdna-ssl.com/usercontent/fill/333/222/cGhvdG9zL3Byb2R1Y3Rpb24vc29mdHdhcmVfdGh1bWJuYWlsX3Bob3Rvcy8wMDAvMzE4LzI1Ni9kYXRhcy9vcmlnaW5hbC5wbmc=/Screen_Shot_2015-11-08_at_7.38.57_AM.png?signature=e44dbaa6d5e3b50d209bfedbd5c9c7e2c8bc4ab4"}, {"URL": "https://devpost.com/software/dubhacksfall2015-student-starters-web-app", "Graphic": "https://devpost-challengepost.netdna-ssl.com/assets/defaults/thumbnail-placeholder-42bcab8d8178b413922ae2877d8b0868.gif"}]}