{"Hackathons": [{"Event": "AI Hackathon", "EventLongLat": "40.7306458, -73.9866136", "Location": "New York, NY, US"}, {"Event": "MHacks 6", "EventLongLat": "42.2681569, -83.7312291", "Location": "Ann Arbor, MI, US"}, {"Event": "PennApps XII", "EventLongLat": "39.9523993, -75.1635899", "Location": "Philadelphia, PA, US"}, {"Event": "Hack the Planet", "EventLongLat": "37.3893889, -122.0832101", "Location": "Mountain View, CA, US"}, {"Event": "Bitcamp 2015", "EventLongLat": "38.980666, -76.9369189", "Location": "College Park, MD, US"}, {"Event": "Hackpoly", "EventLongLat": "34.0553813, -117.7517496", "Location": "Pomona, CA, US"}, {"Event": "GeauxHack", "EventLongLat": "30.4507462, -91.154551", "Location": "Baton Rouge, LA, US"}, {"Event": "PennApps Spring 2014", "EventLongLat": "39.9523993, -75.1635899", "Location": "Philadelphia, Pennsylvania, United States"}, {"Event": "HackMIT", "EventLongLat": "42.3750997, -71.1056157", "Location": "Cambridge, Massachusetts, United States"}], "Name": "Matt Condon", "Skills": ["Website", "web", "GitHub", "express.js", "angular.js", "flask", "Twitter", "javascript", "ios", "datavis", "d3.js", "hardware", "mysql"], "Long": "37.7792808", "Totals": {"Following": "2", "Followers": "39", "Hackathons": "9", "Likes": "13", "Projects": "13"}, "profilePic": "http://challengepost-s3-challengepost.netdna-ssl.com/photos/production/user_photos/000/237/679/datas/profile.jpg", "devpostUrl": "https://devpost.com/Shrugs", "userLocation": "San Francisco, California, United States", "LongLat": "37.7792808, -122.4192363", "Lat": "-122.4192363", "Projects": [{"URL": "https://devpost.com/software/guardian", "Graphic": "https://firefly-challengepost.netdna-ssl.com/usercontent/fill/333/222/cGhvdG9zL3Byb2R1Y3Rpb24vc29mdHdhcmVfdGh1bWJuYWlsX3Bob3Rvcy8wMDAvMjg4LzQwNC9kYXRhcy9vcmlnaW5hbC5wbmc=/devpost.png?signature=be23e4bcd32759bf22c64b30924257b06e29161b"}, {"URL": "https://devpost.com/software/asdfghjkl", "Graphic": "https://challengepost-s3-challengepost.netdna-ssl.com/photos/production/software_photos/000/285/530/datas/medium.jpg"}, {"URL": "https://devpost.com/software/tone", "Graphic": "https://firefly-challengepost.netdna-ssl.com/usercontent/fill/333/222/cGhvdG9zL3Byb2R1Y3Rpb24vc29mdHdhcmVfdGh1bWJuYWlsX3Bob3Rvcy8wMDAvMjQxLzM1OC9kYXRhcy9vcmlnaW5hbC5wbmc=/Screen_Shot_2015-04-12_at_8.32.17_AM.png?signature=1860184d8011c2c4d3fbbddce4ae4f2fc242d8d2"}, {"URL": "https://devpost.com/software/kickback", "Graphic": "https://firefly-challengepost.netdna-ssl.com/usercontent/fill/333/222/cGhvdG9zL3Byb2R1Y3Rpb24vc29mdHdhcmVfdGh1bWJuYWlsX3Bob3Rvcy8wMDAvMjM5Lzg5MS9kYXRhcy9vcmlnaW5hbC5wbmc=/asasdasd.png?signature=dbda4052862c158a34967624c6b2d94bf1c017ee"}, {"URL": "https://devpost.com/software/tessellize", "Graphic": "https://challengepost-s3-challengepost.netdna-ssl.com/photos/production/software_photos/000/401/084/datas/medium.PNG"}, {"URL": "https://devpost.com/software/cloudsource", "Graphic": "https://firefly-challengepost.netdna-ssl.com/usercontent/fill/333/222/cGhvdG9zL3Byb2R1Y3Rpb24vc29mdHdhcmVfdGh1bWJuYWlsX3Bob3Rvcy8wMDAvMjg1LzMzOS9kYXRhcy9vcmlnaW5hbC5wbmc=/devpost-splash.png?signature=152f19620cfb42f7581c8285aa2201d919c265f5"}, {"URL": "https://devpost.com/software/diamond", "Graphic": "https://firefly-challengepost.netdna-ssl.com/usercontent/fill/333/222/cGhvdG9zL3Byb2R1Y3Rpb24vc29mdHdhcmVfdGh1bWJuYWlsX3Bob3Rvcy8wMDAvMjgxLzI5OS9kYXRhcy9vcmlnaW5hbC5wbmc=/diamond_thumbnail.png?signature=d21ee34a73b5baf206750e882b0666b23af1904f"}, {"URL": "https://devpost.com/software/firebass", "Graphic": "https://devpost-challengepost.netdna-ssl.com/assets/defaults/thumbnail-placeholder-42bcab8d8178b413922ae2877d8b0868.gif"}, {"URL": "https://devpost.com/software/jump", "Graphic": "https://challengepost-s3-challengepost.netdna-ssl.com/photos/production/software_photos/000/152/699/datas/medium.png"}, {"URL": "https://devpost.com/software/fivestar", "Graphic": "https://challengepost-s3-challengepost.netdna-ssl.com/photos/production/software_photos/000/134/196/datas/medium.jpg"}, {"URL": "https://devpost.com/software/boss'boss", "Graphic": "https://challengepost-s3-challengepost.netdna-ssl.com/photos/production/software_photos/000/155/908/datas/medium.png"}, {"URL": "https://devpost.com/software/cloudyday", "Graphic": "https://challengepost-s3-challengepost.netdna-ssl.com/photos/production/software_photos/000/103/169/datas/medium.png"}]}